{
  "cities": [
    {
      "id": "xia_zhenxun",
      "ancient_name": "斟鄩",
      "modern_name": "河南省洛阳市偃师区二里头",
      "lat": 34.6997,
      "lon": 112.6917,
      "period": "夏朝",
      "type": "都城",
      "initial_owner": "夏朝",
      "vassal_of": null,
      "confidence": "high",
      "note": "夏桀都城，二里头遗址"
    },
    {
      "id": "xia_anyi",
      "ancient_name": "安邑",
      "modern_name": "山西省运城市夏县",
      "lat": 35.1416,
      "lon": 111.2203,
      "period": "夏朝",
      "type": "都城",
      "initial_owner": "夏朝",
      "vassal_of": null,
      "confidence": "high",
      "note": "夏朝旧都"
    },
    {
      "id": "xia_yuan",
      "ancient_name": "原",
      "modern_name": "河南省济源市",
      "lat": 35.09,
      "lon": 112.59,
      "period": "夏朝",
      "type": "都城",
      "initial_owner": "夏朝",
      "vassal_of": null,
      "confidence": "medium",
      "note": "夏朝都城之一"
    },
    {
      "id": "xia_laoqiu",
      "ancient_name": "老丘",
      "modern_name": "河南省开封市祥符区",
      "lat": 34.75,
      "lon": 114.45,
      "period": "夏朝",
      "type": "都城",
      "initial_owner": "夏朝",
      "vassal_of": null,
      "confidence": "medium",
      "note": "夏杼迁都之地"
    },
    {
      "id": "xia_zhenguan",
      "ancient_name": "斟灌",
      "modern_name": "山东省潍坊市寿光市",
      "lat": 36.8554,
      "lon": 118.7373,
      "period": "夏朝",
      "type": "都城",
      "initial_owner": "夏朝",
      "vassal_of": null,
      "confidence": "medium",
      "note": "夏朝同姓诸侯国"
    },
    {
      "id": "xia_xiatai",
      "ancient_name": "夏台/钧台",
      "modern_name": "河南省许昌市禹州市",
      "lat": 34.1404,
      "lon": 113.488,
      "period": "夏朝",
      "type": "关隘",
      "initial_owner": "夏朝",
      "vassal_of": null,
      "confidence": "high",
      "note": "夏桀囚禁商汤之地"
    },
    {
      "id": "xia_dongxiafeng",
      "ancient_name": "东下冯",
      "modern_name": "山西省运城市夏县埝掌镇",
      "lat": 35.3,
      "lon": 111.4,
      "period": "夏朝",
      "type": "县治",
      "initial_owner": "夏朝",
      "vassal_of": null,
      "confidence": "high",
      "note": "东下冯遗址，夏文化重要遗址，晋南夏人活动中心"
    },
    {
      "id": "xia_wangchenggang",
      "ancient_name": "王城岗/阳城",
      "modern_name": "河南省郑州市登封市告城镇",
      "lat": 34.4,
      "lon": 113.1,
      "period": "夏朝",
      "type": "都城",
      "initial_owner": "夏朝",
      "vassal_of": null,
      "confidence": "high",
      "note": "王城岗遗址，文献禹都阳城，龙山晚期至夏文化"
    },
    {
      "id": "xia_xinzai",
      "ancient_name": "新砦",
      "modern_name": "河南省郑州市新密市刘寨镇",
      "lat": 34.5,
      "lon": 113.4,
      "period": "夏朝",
      "type": "县治",
      "initial_owner": "夏朝",
      "vassal_of": null,
      "confidence": "high",
      "note": "新砦遗址，夏文化早期，介于龙山与二里头之间"
    },
    {
      "id": "xia_huadizui",
      "ancient_name": "花地嘴",
      "modern_name": "河南省郑州市巩义市河洛镇",
      "lat": 34.8,
      "lon": 113.0,
      "period": "夏朝",
      "type": "县治",
      "initial_owner": "夏朝",
      "vassal_of": null,
      "confidence": "high",
      "note": "花地嘴遗址，夏文化重要遗址，伊洛河流域"
    },
    {
      "id": "xia_dashigu",
      "ancient_name": "大师姑",
      "modern_name": "河南省郑州市荥阳市广武镇",
      "lat": 34.9,
      "lon": 113.4,
      "period": "夏朝",
      "type": "县治",
      "initial_owner": "夏朝",
      "vassal_of": null,
      "confidence": "high",
      "note": "大师姑遗址，夏文化城址，郑州西北部"
    },
    {
      "id": "xia_dongzhao",
      "ancient_name": "东赵",
      "modern_name": "河南省郑州市高新区",
      "lat": 34.8,
      "lon": 113.6,
      "period": "夏朝",
      "type": "县治",
      "initial_owner": "夏朝",
      "vassal_of": null,
      "confidence": "high",
      "note": "东赵遗址，夏文化遗址，郑州西部"
    },
    {
      "id": "xia_huizui",
      "ancient_name": "灰嘴",
      "modern_name": "河南省洛阳市偃师区缑氏镇",
      "lat": 34.7,
      "lon": 112.7,
      "period": "夏朝",
      "type": "县治",
      "initial_owner": "夏朝",
      "vassal_of": null,
      "confidence": "high",
      "note": "灰嘴遗址，二里头文化遗址，洛阳东部"
    },
    {
      "id": "xia_saochai",
      "ancient_name": "稍柴",
      "modern_name": "河南省郑州市巩义市芝田镇",
      "lat": 34.7,
      "lon": 113.0,
      "period": "夏朝",
      "type": "县治",
      "initial_owner": "夏朝",
      "vassal_of": null,
      "confidence": "high",
      "note": "稍柴遗址，夏文化遗址，巩义南部"
    },
    {
      "id": "xia_luodamiao",
      "ancient_name": "洛达庙",
      "modern_name": "河南省郑州市中原区",
      "lat": 34.8,
      "lon": 113.6,
      "period": "夏朝",
      "type": "县治",
      "initial_owner": "夏朝",
      "vassal_of": null,
      "confidence": "high",
      "note": "洛达庙遗址，夏文化遗址，郑州城区"
    },
    {
      "id": "xia_nawa",
      "ancient_name": "南洼",
      "modern_name": "河南省郑州市登封市宣化镇",
      "lat": 34.3,
      "lon": 113.1,
      "period": "夏朝",
      "type": "县治",
      "initial_owner": "夏朝",
      "vassal_of": null,
      "confidence": "high",
      "note": "南洼遗址，夏文化遗址，登封东部"
    },
    {
      "id": "xia_yique",
      "ancient_name": "伊阙",
      "modern_name": "河南省洛阳市龙门镇",
      "lat": 34.6,
      "lon": 112.5,
      "period": "夏朝",
      "type": "关隘",
      "initial_owner": "夏朝",
      "vassal_of": null,
      "confidence": "medium",
      "note": "伊阙关，龙门山隘口，洛阳南大门"
    },
    {
      "id": "xia_hulaoguan",
      "ancient_name": "虎牢关",
      "modern_name": "河南省郑州市荥阳市汜水镇",
      "lat": 34.9,
      "lon": 113.4,
      "period": "夏朝",
      "type": "关隘",
      "initial_owner": "夏朝",
      "vassal_of": null,
      "confidence": "medium",
      "note": "虎牢关，成皋故城，洛阳东部门户"
    },
    {
      "id": "xia_huanyuanguan",
      "ancient_name": "轘辕关",
      "modern_name": "河南省郑州市登封市少林寺附近",
      "lat": 34.4,
      "lon": 113.1,
      "period": "夏朝",
      "type": "关隘",
      "initial_owner": "夏朝",
      "vassal_of": null,
      "confidence": "medium",
      "note": "轘辕关，嵩山隘口，洛阳东南门户"
    },
    {
      "id": "xia_taihangxing",
      "ancient_name": "太行陉",
      "modern_name": "河南省焦作市沁阳市常平乡",
      "lat": 35.1,
      "lon": 112.9,
      "period": "夏朝",
      "type": "关隘",
      "initial_owner": "夏朝",
      "vassal_of": null,
      "confidence": "medium",
      "note": "太行陉，太行山隘口，晋豫通道"
    },
    {
      "id": "xia_mengjin",
      "ancient_name": "孟津",
      "modern_name": "河南省洛阳市孟津区会盟镇",
      "lat": 34.8,
      "lon": 112.4,
      "period": "夏朝",
      "type": "关隘",
      "initial_owner": "夏朝",
      "vassal_of": null,
      "confidence": "medium",
      "note": "孟津渡，黄河重要渡口，洛阳北门户"
    },
    {
      "id": "xia_shiwei",
      "ancient_name": "豕韦/韦国",
      "modern_name": "河南省安阳市滑县",
      "lat": 35.5754,
      "lon": 114.5193,
      "period": "夏朝",
      "type": "都城",
      "initial_owner": "豕韦",
      "vassal_of": "夏朝",
      "confidence": "high",
      "note": "夏桀铁杆同盟，三蘖之一"
    },
    {
      "id": "xia_gu",
      "ancient_name": "顾国",
      "modern_name": "河南省濮阳市范县",
      "lat": 35.904,
      "lon": 115.504,
      "period": "夏朝",
      "type": "都城",
      "initial_owner": "顾国",
      "vassal_of": "夏朝",
      "confidence": "high",
      "note": "夏桀铁杆同盟，三蘖之一"
    },
    {
      "id": "xia_kunwu",
      "ancient_name": "昆吾",
      "modern_name": "河南省濮阳市",
      "lat": 35.7619,
      "lon": 115.0292,
      "period": "夏朝",
      "type": "都城",
      "initial_owner": "昆吾",
      "vassal_of": "夏朝",
      "confidence": "high",
      "note": "夏桀铁杆同盟，三蘖之一"
    },
    {
      "id": "shang_bo",
      "ancient_name": "亳/商邑",
      "modern_name": "河南省商丘市",
      "lat": 34.4143,
      "lon": 115.6564,
      "period": "夏朝",
      "type": "都城",
      "initial_owner": "商部落",
      "vassal_of": null,
      "confidence": "high",
      "note": "商汤都城，南亳"
    },
    {
      "id": "shang_shen",
      "ancient_name": "有莘氏",
      "modern_name": "山东省菏泽市曹县",
      "lat": 34.8266,
      "lon": 115.5421,
      "period": "夏朝",
      "type": "都城",
      "initial_owner": "有莘氏",
      "vassal_of": "商部落",
      "confidence": "medium",
      "note": "伊尹出身之地，商汤联姻之国"
    },
    {
      "id": "shang_jingbo",
      "ancient_name": "景亳/北亳",
      "modern_name": "山东省菏泽市曹县青堌集镇",
      "lat": 34.8,
      "lon": 115.5,
      "period": "夏朝",
      "type": "都城",
      "initial_owner": "商部落",
      "vassal_of": null,
      "confidence": "medium",
      "note": "景亳，商部落早期据点，文献记载"
    },
    {
      "id": "sanzong",
      "ancient_name": "三鬷/三朡",
      "modern_name": "山东省菏泽市定陶区",
      "lat": 35.0726,
      "lon": 115.573,
      "period": "夏朝",
      "type": "都城",
      "initial_owner": "三鬷",
      "vassal_of": "夏朝",
      "confidence": "high",
      "note": "夏桀败退投奔之国"
    },
    {
      "id": "geguo",
      "ancient_name": "葛国",
      "modern_name": "河南省商丘市宁陵县",
      "lat": 34.4493,
      "lon": 115.314,
      "period": "夏朝",
      "type": "都城",
      "initial_owner": "葛国",
      "vassal_of": null,
      "confidence": "high",
      "note": "独立方国"
    },
    {
      "id": "youshi",
      "ancient_name": "有施氏",
      "modern_name": "山东省枣庄市滕州市",
      "lat": 35.0884,
      "lon": 117.1597,
      "period": "夏朝",
      "type": "都城",
      "initial_owner": "有施氏",
      "vassal_of": null,
      "confidence": "high",
      "note": "喜姓之国"
    },
    {
      "id": "youmin",
      "ancient_name": "有缗氏",
      "modern_name": "山东省济宁市金乡县",
      "lat": 35.0656,
      "lon": 116.3115,
      "period": "夏朝",
      "type": "都城",
      "initial_owner": "有缗氏",
      "vassal_of": null,
      "confidence": "high",
      "note": "舜之后裔"
    },
    {
      "id": "youreng",
      "ancient_name": "有仍氏/任国",
      "modern_name": "山东省济宁市",
      "lat": 35.4154,
      "lon": 116.5872,
      "period": "夏朝",
      "type": "都城",
      "initial_owner": "有仍氏",
      "vassal_of": null,
      "confidence": "high",
      "note": "夏后氏联姻部落"
    },
    {
      "id": "youge",
      "ancient_name": "有鬲氏",
      "modern_name": "山东省德州市",
      "lat": 37.4504,
      "lon": 116.3575,
      "period": "夏朝",
      "type": "都城",
      "initial_owner": "有鬲氏",
      "vassal_of": null,
      "confidence": "medium",
      "note": "东夷部落"
    },
    {
      "id": "youyu",
      "ancient_name": "有虞氏",
      "modern_name": "河南省商丘市虞城县",
      "lat": 34.397,
      "lon": 115.865,
      "period": "夏朝",
      "type": "都城",
      "initial_owner": "有虞氏",
      "vassal_of": null,
      "confidence": "high",
      "note": "舜之后裔"
    },
    {
      "id": "youqiong",
      "ancient_name": "有穷氏",
      "modern_name": "山东省德州市",
      "lat": 37.43,
      "lon": 116.38,
      "period": "夏朝",
      "type": "都城",
      "initial_owner": "有穷氏",
      "vassal_of": null,
      "confidence": "medium",
      "note": "后羿所属部落"
    },
    {
      "id": "xueguo",
      "ancient_name": "薛国",
      "modern_name": "山东省枣庄市滕州市",
      "lat": 35.07,
      "lon": 117.18,
      "period": "夏朝",
      "type": "都城",
      "initial_owner": "薛国",
      "vassal_of": null,
      "confidence": "medium",
      "note": "任姓古国"
    },
    {
      "id": "pengguo",
      "ancient_name": "彭国",
      "modern_name": "江苏省徐州市",
      "lat": 34.261,
      "lon": 117.1848,
      "period": "夏朝",
      "type": "都城",
      "initial_owner": "彭国",
      "vassal_of": null,
      "confidence": "medium",
      "note": "彭祖封国"
    },
    {
      "id": "guoguo",
      "ancient_name": "过国",
      "modern_name": "山东省烟台市莱州市",
      "lat": 37.1791,
      "lon": 119.9423,
      "period": "夏朝",
      "type": "都城",
      "initial_owner": "过国",
      "vassal_of": null,
      "confidence": "low",
      "note": "东夷方国"
    },
    {
      "id": "tushan",
      "ancient_name": "涂山氏",
      "modern_name": "安徽省蚌埠市",
      "lat": 32.9165,
      "lon": 117.3895,
      "period": "夏朝",
      "type": "都城",
      "initial_owner": "涂山氏",
      "vassal_of": null,
      "confidence": "medium",
      "note": "大禹娶妻之地"
    },
    {
      "id": "fangfeng",
      "ancient_name": "防风氏",
      "modern_name": "浙江省湖州市德清县",
      "lat": 30.5423,
      "lon": 119.9773,
      "period": "夏朝",
      "type": "都城",
      "initial_owner": "防风氏",
      "vassal_of": null,
      "confidence": "low",
      "note": "东南方国"
    },
    {
      "id": "yingshi",
      "ancient_name": "英氏/六氏",
      "modern_name": "安徽省六安市",
      "lat": 31.7343,
      "lon": 116.5214,
      "period": "夏朝",
      "type": "都城",
      "initial_owner": "英氏",
      "vassal_of": null,
      "confidence": "low",
      "note": "南方方国"
    },
    {
      "id": "chaoguo",
      "ancient_name": "巢国",
      "modern_name": "安徽省合肥市巢湖市",
      "lat": 31.6256,
      "lon": 117.8904,
      "period": "夏朝",
      "type": "都城",
      "initial_owner": "巢国",
      "vassal_of": null,
      "confidence": "high",
      "note": "夏桀流放地"
    },
    {
      "id": "laiyi",
      "ancient_name": "莱夷",
      "modern_name": "山东省烟台市莱州市/龙口市",
      "lat": 37.4,
      "lon": 120.1,
      "period": "夏朝",
      "type": "都城",
      "initial_owner": "莱夷",
      "vassal_of": null,
      "confidence": "low",
      "note": "东夷大部落"
    },
    {
      "id": "minshan",
      "ancient_name": "岷山氏",
      "modern_name": "四川省阿坝州茂县/汶川县",
      "lat": 31.68,
      "lon": 103.85,
      "period": "夏朝",
      "type": "都城",
      "initial_owner": "岷山氏",
      "vassal_of": null,
      "confidence": "low",
      "note": "夏桀伐之得琬琰"
    },
    {
      "id": "jiuyi_quan",
      "ancient_name": "畎夷",
      "modern_name": "山东省临沂市",
      "lat": 35.065,
      "lon": 118.342,
      "period": "夏朝",
      "type": "都城",
      "initial_owner": "畎夷",
      "vassal_of": null,
      "confidence": "low",
      "note": "九夷之一"
    },
    {
      "id": "jiuyi_yu",
      "ancient_name": "于夷",
      "modern_name": "山东省枣庄市",
      "lat": 34.8108,
      "lon": 117.3237,
      "period": "夏朝",
      "type": "都城",
      "initial_owner": "于夷",
      "vassal_of": null,
      "confidence": "low",
      "note": "九夷之一"
    },
    {
      "id": "jiuyi_fang",
      "ancient_name": "方夷",
      "modern_name": "江苏省徐州市邳州市",
      "lat": 34.32,
      "lon": 117.95,
      "period": "夏朝",
      "type": "都城",
      "initial_owner": "方夷",
      "vassal_of": null,
      "confidence": "low",
      "note": "九夷之一"
    },
    {
      "id": "jiuyi_huang",
      "ancient_name": "黄夷",
      "modern_name": "安徽省宿州市",
      "lat": 33.63,
      "lon": 116.98,
      "period": "夏朝",
      "type": "都城",
      "initial_owner": "黄夷",
      "vassal_of": null,
      "confidence": "low",
      "note": "九夷之一"
    },
    {
      "id": "jiuyi_bai",
      "ancient_name": "白夷",
      "modern_name": "江苏省连云港市",
      "lat": 34.6,
      "lon": 119.18,
      "period": "夏朝",
      "type": "都城",
      "initial_owner": "白夷",
      "vassal_of": null,
      "confidence": "low",
      "note": "九夷之一"
    },
    {
      "id": "jiuyi_chi",
      "ancient_name": "赤夷",
      "modern_name": "安徽省蚌埠市",
      "lat": 32.9165,
      "lon": 117.3895,
      "period": "夏朝",
      "type": "都城",
      "initial_owner": "赤夷",
      "vassal_of": null,
      "confidence": "low",
      "note": "九夷之一"
    },
    {
      "id": "jiuyi_xuan",
      "ancient_name": "玄夷",
      "modern_name": "山东省日照市",
      "lat": 35.42,
      "lon": 119.52,
      "period": "夏朝",
      "type": "都城",
      "initial_owner": "玄夷",
      "vassal_of": null,
      "confidence": "low",
      "note": "九夷之一"
    },
    {
      "id": "jiuyi_feng",
      "ancient_name": "风夷",
      "modern_name": "山东省潍坊市",
      "lat": 36.7089,
      "lon": 119.1619,
      "period": "夏朝",
      "type": "都城",
      "initial_owner": "风夷",
      "vassal_of": null,
      "confidence": "low",
      "note": "九夷之一"
    },
    {
      "id": "jiuyi_yang",
      "ancient_name": "阳夷",
      "modern_name": "江苏省盐城市",
      "lat": 33.38,
      "lon": 120.12,
      "period": "夏朝",
      "type": "都城",
      "initial_owner": "阳夷",
      "vassal_of": null,
      "confidence": "low",
      "note": "九夷之一"
    },
    {
      "id": "battle_mingtiao",
      "ancient_name": "鸣条",
      "modern_name": "河南省新乡市封丘县/山西省运城市夏县",
      "lat": 35.1,
      "lon": 114.5,
      "period": "夏朝",
      "type": "关隘",
      "initial_owner": "夏朝",
      "vassal_of": null,
      "confidence": "medium",
      "note": "鸣条之战战场"
    },
    {
      "id": "battle_nanchao",
      "ancient_name": "南巢",
      "modern_name": "安徽省合肥市巢湖市",
      "lat": 31.6256,
      "lon": 117.8904,
      "period": "夏朝",
      "type": "关隘",
      "initial_owner": "巢国",
      "vassal_of": null,
      "confidence": "high",
      "note": "夏桀流放地"
    },
    {
      "id": "battle_lishan",
      "ancient_name": "历山/鬲山",
      "modern_name": "安徽省马鞍山市和县",
      "lat": 31.74,
      "lon": 118.37,
      "period": "夏朝",
      "type": "关隘",
      "initial_owner": "夏朝",
      "vassal_of": null,
      "confidence": "low",
      "note": "夏朝控制区"
    }
  ]
}